[
  {
    "name": "Sf Haasbroek",
    "lat": -27.413064112082218,
    "lon": 26.39355653815821
  },
  {
    "name": "Cornelia",
    "lat": -27.69152172672409,
    "lon": 26.44368253816803
  },
  {
    "name": "JN Jacobsz",
    "lat": -27.651250282596436,
    "lon": 26.43624093558256
  },
  {
    "name": "HP Ferreira",
    "lat": -28.071317908331952,
    "lon": 26.25064526701652
  },
  {
    "name": "Teo Ferreira",
    "lat": -28.225539375209316,
    "lon": 26.124705380517383
  },
  {
    "name": "Izak Cronje",
    "lat": -28.20738224520913,
    "lon": 26.38936080935168
  },
  {
    "name": "Gerhard Cronje",
    "lat": -28.240370859154467,
    "lon": 26.42322172469238
  },
  {
    "name": "Matomundi",
    "lat": -28.06731496698842,
    "lon": 26.574214267016327
  },
  {
    "name": "Maas Bdry",
    "lat": -27.94686542875395,
    "lon": 26.329509695847
  },
  {
    "name": "Betmar",
    "lat": -28.091158479215565,
    "lon": 25.831808767017293
  },
  {
    "name": "Borlinghaus",
    "lat": -27.716815778604488,
    "lon": 26.386336167003904
  },
  {
    "name": "WD Botha",
    "lat": -28.184118742166113,
    "lon": 26.989235695855452
  },
  {
    "name": "Mons Bdy",
    "lat": -28.12538113906193,
    "lon": 26.14054977848897
  },
  {
    "name": "Anton Muller",
    "lat": -27.858262039521605,
    "lon": 25.64549399584375
  },
  {
    "name": "Marits Nel",
    "lat": -27.74471094403574,
    "lon": 26.469691705421578
  },
  {
    "name": "Dawie Naude",
    "lat": -28.017027550533612,
    "lon": 26.00468716332136
  },
  {
    "name": "Prop van Zyl",
    "lat": -27.93854361232906,
    "lon": 26.382593195846667
  },
  {
    "name": "Onverwag Boerdery",
    "lat": -28.19290093654914,
    "lon": 26.005265809351272
  },
  {
    "name": "SPAR",
    "lat": -28.581154919405076,
    "lon": 27.486046667781952
  },
  {
    "name": "SAX",
    "lat": -28.46120571688839,
    "lon": 27.226272595865517
  },
  {
    "name": "SCH",
    "lat": -28.31817552131897,
    "lon": 26.405485195860393
  },
  {
    "name": "THR",
    "lat": -28.010530642785685,
    "lon": 26.523585311188683
  },
  {
    "name": "KLE",
    "lat": -28.188702177056772,
    "lon": 26.102694724690426
  },
  {
    "name": "SAR",
    "lat": -27.919950635668116,
    "lon": 25.772347724680895
  },
  {
    "name": "MIS",
    "lat": -27.845958675859443,
    "lon": 26.203191795843374
  },
  {
    "name": "HLP",
    "lat": -27.750205831514368,
    "lon": 26.11489109583991
  },
  {
    "name": "VYF",
    "lat": -27.505792080494125,
    "lon": 26.410354138161406
  },
  {
    "name": "Edla Boerdery",
    "lat": -28.20507833906276,
    "lon": 26.390223802973587
  },
  {
    "name": "Tewie Nel",
    "lat": -28.11370800898199,
    "lon": 25.810563
  },
  {
    "name": "JJ Wilken",
    "lat": -28.00538034086716,
    "lon": 27.185916813493076
  },
  {
    "name": "AVR BDY",
    "lat": -28.012671237055418,
    "lon": 26.079291751769095
  },
  {
    "name": "ANDRE FAM TRUST",
    "lat": -28.0551744306977,
    "lon": 26.71031191349309
  },
  {
    "name": "MOOITOEKOMS",
    "lat": -28.04486398444516,
    "lon": 26.092345267197103
  },
  {
    "name": "Britspan",
    "lat": -27.854433332722703,
    "lon": 26.642796031608153
  },
  {
    "name": "AC Greyling",
    "lat": -28.17217837979711,
    "lon": 25.994424453524733
  },
  {
    "name": "Mc Grathspark",
    "lat": -28.184055828535225,
    "lon": 26.357114182360135
  },
  {
    "name": "Poppieland",
    "lat": -28.054743537590966,
    "lon": 25.989028453520564
  },
  {
    "name": "Fourie Boerdery",
    "lat": -27.971675826810632,
    "lon": 26.275767351673483
  },
  {
    "name": "Bakkes-Elmasdal",
    "lat": -27.95105812344154,
    "lon": 26.275414267012213
  },
  {
    "name": "CM Bakkes",
    "lat": -27.937352709978967,
    "lon": 26.224048453516385
  },
  {
    "name": "Las Vacus",
    "lat": -27.455137305325902,
    "lon": 26.243096751382524
  },
  {
    "name": "Henk Harmse",
    "lat": -28.191712627787886,
    "lon": 26.311774421771013
  },
  {
    "name": "Bonnas van Zyl",
    "lat": -27.941274689810914,
    "lon": 26.403629438011922
  },
  {
    "name": "HD van Schalkwyk",
    "lat": -28.19171257486839,
    "lon": 26.258216077808832
  },
  {
    "name": "Goudkop",
    "lat": -27.986153913304374,
    "lon": 26.528598906685303
  },
  {
    "name": "Hesla",
    "lat": -27.562048587352027,
    "lon": 26.585515442330237
  },
  {
    "name": "Uys van Heerden",
    "lat": -27.72932429088154,
    "lon": 26.693420784494133
  },
  {
    "name": "Eulogio",
    "lat": -27.653505,
    "lon": 26.506017
  },
  {
    "name": "toets",
    "lat": -27.977861,
    "lon": 26.7148366
  },
  {
    "name": "Test Producer Ltd",
    "lat": -25.7479,
    "lon": 28.2293
  },
  {
    "name": "Acme Farms",
    "lat": -33.9249,
    "lon": 18.4241
  }
]